{
"type": "FeatureCollection",
"name": "hap_temp_stations",
"crs": { "type": "name", "properties": { "name": "urn:ogc:def:crs:OGC:1.3:CRS84" } },
"features": [
{ "type": "Feature", "properties": { "id": 8516945, "name": "Kings Point", "lat": 40.810299, "lng": -73.7649, "station_URL": "https://tidesandcurrents.noaa.gov/stationhome.html?id=8516945" }, "geometry": { "type": "Point", "coordinates": [ -73.7649, 40.810299 ] } },
{ "type": "Feature", "properties": { "id": 8518750, "name": "The Battery", "lat": 40.700556, "lng": -74.014167, "station_URL": "https://tidesandcurrents.noaa.gov/stationhome.html?id=8518750" }, "geometry": { "type": "Point", "coordinates": [ -74.014167, 40.700556 ] } },
{ "type": "Feature", "properties": { "id": 8518962, "name": "Turkey Point Hudson River NERRS", "lat": 42.014167, "lng": -73.939167, "station_URL": "https://tidesandcurrents.noaa.gov/stationhome.html?id=8518962" }, "geometry": { "type": "Point", "coordinates": [ -73.939167, 42.014167 ] } },
{ "type": "Feature", "properties": { "id": 8519483, "name": "Bergen Point West Reach", "lat": 40.6391, "lng": -74.146306, "station_URL": "https://tidesandcurrents.noaa.gov/stationhome.html?id=8519483" }, "geometry": { "type": "Point", "coordinates": [ -74.146306, 40.6391 ] } },
{ "type": "Feature", "properties": { "id": 8531680, "name": "Sandy Hook", "lat": 40.4669, "lng": -74.009399, "station_URL": "https://tidesandcurrents.noaa.gov/stationhome.html?id=8531680" }, "geometry": { "type": "Point", "coordinates": [ -74.009399, 40.4669 ] } }
]
}
